{
    "provinces": [
        {"id": 1, "name": "上海市", "country": "CN", "lat": 31.2304, "lng": 121.4737, "scores": {"total": 83.5, "resource": 70, "price": 90, "market": 85, "grid": 90}, "grade": "A"},
        {"id": 2, "name": "北京市", "country": "CN", "lat": 39.9042, "lng": 116.4074, "scores": {"total": 75.2, "resource": 65, "price": 85, "market": 80, "grid": 70}, "grade": "B"},
        {"id": 3, "name": "广东省", "country": "CN", "lat": 23.1291, "lng": 113.2644, "scores": {"total": 72.8, "resource": 75, "price": 80, "market": 70, "grid": 65}, "grade": "B"},
        {"id": 4, "name": "江苏省", "country": "CN", "lat": 32.0603, "lng": 118.7969, "scores": {"total": 70.5, "resource": 68, "price": 78, "market": 72, "grid": 65}, "grade": "B"},
        {"id": 5, "name": "浙江省", "country": "CN", "lat": 30.2741, "lng": 120.1551, "scores": {"total": 68.3, "resource": 70, "price": 75, "market": 68, "grid": 60}, "grade": "B"},
        {"id": 6, "name": "山东省", "country": "CN", "lat": 36.6512, "lng": 117.1205, "scores": {"total": 72.1, "resource": 80, "price": 72, "market": 70, "grid": 68}, "grade": "B"},
        {"id": 7, "name": "河南省", "country": "CN", "lat": 34.7656, "lng": 113.7535, "scores": {"total": 75.8, "resource": 85, "price": 70, "market": 72, "grid": 78}, "grade": "B"},
        {"id": 8, "name": "四川省", "country": "CN", "lat": 30.5728, "lng": 104.0668, "scores": {"total": 78.5, "resource": 82, "price": 75, "market": 78, "grid": 80}, "grade": "B"},
        {"id": 9, "name": "湖北省", "country": "CN", "lat": 30.5928, "lng": 114.3055, "scores": {"total": 74.2, "resource": 78, "price": 72, "market": 74, "grid": 72}, "grade": "B"},
        {"id": 10, "name": "河北省", "country": "CN", "lat": 38.0428, "lng": 114.5149, "scores": {"total": 76.5, "resource": 85, "price": 72, "market": 74, "grid": 76}, "grade": "B"},
        {"id": 11, "name": "新疆维吾尔自治区", "country": "CN", "lat": 43.793, "lng": 87.6271, "scores": {"total": 95.0, "resource": 98, "price": 85, "market": 95, "grid": 98}, "grade": "A"},
        {"id": 12, "name": "甘肃省", "country": "CN", "lat": 36.0611, "lng": 103.8343, "scores": {"total": 92.0, "resource": 96, "price": 82, "market": 90, "grid": 95}, "grade": "A"},
        {"id": 13, "name": "内蒙古自治区", "country": "CN", "lat": 40.8427, "lng": 111.7499, "scores": {"total": 90.0, "resource": 95, "price": 80, "market": 88, "grid": 92}, "grade": "A"},
        {"id": 14, "name": "青海省", "country": "CN", "lat": 36.6232, "lng": 101.7782, "scores": {"total": 88.0, "resource": 94, "price": 78, "market": 85, "grid": 90}, "grade": "A"},
        {"id": 15, "name": "宁夏回族自治区", "country": "CN", "lat": 38.468, "lng": 106.2586, "scores": {"total": 75.0, "resource": 88, "price": 72, "market": 70, "grid": 75}, "grade": "B"},
        {"id": 16, "name": "陕西省", "country": "CN", "lat": 34.2658, "lng": 108.9541, "scores": {"total": 72.0, "resource": 75, "price": 70, "market": 72, "grid": 70}, "grade": "B"},
        {"id": 17, "name": "山西省", "country": "CN", "lat": 37.8706, "lng": 112.5489, "scores": {"total": 70.0, "resource": 78, "price": 68, "market": 68, "grid": 68}, "grade": "B"},
        {"id": 18, "name": "云南省", "country": "CN", "lat": 25.0453, "lng": 102.7097, "scores": {"total": 68.5, "resource": 80, "price": 65, "market": 65, "grid": 65}, "grade": "B"},
        {"id": 19, "name": "广西壮族自治区", "country": "CN", "lat": 22.817, "lng": 108.3665, "scores": {"total": 65.0, "resource": 72, "price": 62, "market": 62, "grid": 65}, "grade": "C"},
        {"id": 20, "name": "贵州省", "country": "CN", "lat": 26.598, "lng": 106.7073, "scores": {"total": 66.5, "resource": 75, "price": 62, "market": 65, "grid": 65}, "grade": "C"},
        {"id": 21, "name": "湖南省", "country": "CN", "lat": 28.2282, "lng": 112.9388, "scores": {"total": 67.8, "resource": 70, "price": 68, "market": 68, "grid": 65}, "grade": "C"},
        {"id": 22, "name": "安徽省", "country": "CN", "lat": 31.8612, "lng": 117.283, "scores": {"total": 68.0, "resource": 68, "price": 70, "market": 68, "grid": 66}, "grade": "C"},
        {"id": 23, "name": "江西省", "country": "CN", "lat": 28.6829, "lng": 115.8579, "scores": {"total": 66.0, "resource": 70, "price": 65, "market": 65, "grid": 64}, "grade": "C"},
        {"id": 24, "name": "福建省", "country": "CN", "lat": 26.0745, "lng": 119.2965, "scores": {"total": 64.5, "resource": 68, "price": 70, "market": 62, "grid": 60}, "grade": "C"},
        {"id": 25, "name": "辽宁省", "country": "CN", "lat": 41.7968, "lng": 123.4315, "scores": {"total": 70.0, "resource": 72, "price": 70, "market": 70, "grid": 68}, "grade": "B"},
        {"id": 26, "name": "吉林省", "country": "CN", "lat": 43.8171, "lng": 125.3235, "scores": {"total": 72.0, "resource": 78, "price": 68, "market": 70, "grid": 72}, "grade": "B"},
        {"id": 27, "name": "黑龙江省", "country": "CN", "lat": 45.8038, "lng": 126.535, "scores": {"total": 74.0, "resource": 82, "price": 70, "market": 72, "grid": 72}, "grade": "B"},
        {"id": 28, "name": "海南省", "country": "CN", "lat": 20.0444, "lng": 110.1999, "scores": {"total": 62.0, "resource": 85, "price": 60, "market": 55, "grid": 50}, "grade": "C"},
        {"id": 29, "name": "天津市", "country": "CN", "lat": 39.3434, "lng": 117.3616, "scores": {"total": 68.0, "resource": 60, "price": 78, "market": 70, "grid": 65}, "grade": "B"},
        {"id": 30, "name": "重庆市", "country": "CN", "lat": 29.4316, "lng": 106.9123, "scores": {"total": 66.0, "resource": 70, "price": 65, "market": 65, "grid": 65}, "grade": "C"},
        {"id": 31, "name": "宁顺省", "country": "VN", "lat": 11.6854, "lng": 109.043, "scores": {"total": 92.0, "resource": 95, "price": 88, "market": 90, "grid": 95}, "grade": "A"},
        {"id": 32, "name": "平顺省", "country": "VN", "lat": 10.9294, "lng": 108.6367, "scores": {"total": 90.0, "resource": 93, "price": 85, "market": 88, "grid": 92}, "grade": "A"},
        {"id": 33, "name": "广义省", "country": "VN", "lat": 15.5517, "lng": 108.433, "scores": {"total": 88.0, "resource": 90, "price": 82, "market": 85, "grid": 90}, "grade": "A"},
        {"id": 34, "name": "庆和省", "country": "VN", "lat": 12.2539, "lng": 109.1918, "scores": {"total": 75.0, "resource": 80, "price": 72, "market": 75, "grid": 73}, "grade": "B"},
        {"id": 35, "name": "富安省", "country": "VN", "lat": 13.1104, "lng": 109.3375, "scores": {"total": 72.0, "resource": 78, "price": 68, "market": 70, "grid": 72}, "grade": "B"},
        {"id": 36, "name": "嘉莱省", "country": "VN", "lat": 14.0, "lng": 108.0, "scores": {"total": 68.0, "resource": 75, "price": 65, "market": 65, "grid": 68}, "grade": "B"},
        {"id": 37, "name": "北海道", "country": "JP", "lat": 43.2203, "lng": 142.8634, "scores": {"total": 95.0, "resource": 98, "price": 85, "market": 95, "grid": 98}, "grade": "A"},
        {"id": 38, "name": "福冈县", "country": "JP", "lat": 33.5904, "lng": 130.4017, "scores": {"total": 78.0, "resource": 80, "price": 75, "market": 78, "grid": 80}, "grade": "B"},
        {"id": 39, "name": "佐贺县", "country": "JP", "lat": 33.1496, "lng": 130.2997, "scores": {"total": 80.0, "resource": 82, "price": 78, "market": 80, "grid": 80}, "grade": "A"},
        {"id": 40, "name": "长崎县", "country": "JP", "lat": 32.7448, "lng": 129.8738, "scores": {"total": 76.0, "resource": 78, "price": 74, "market": 75, "grid": 78}, "grade": "B"},
        {"id": 41, "name": "鹿儿岛县", "country": "JP", "lat": 31.5601, "lng": 130.6579, "scores": {"total": 74.0, "resource": 80, "price": 70, "market": 72, "grid": 75}, "grade": "B"},
        {"id": 42, "name": "宫崎县", "country": "JP", "lat": 32.2259, "lng": 131.6095, "scores": {"total": 75.0, "resource": 82, "price": 70, "market": 72, "grid": 76}, "grade": "B"},
        {"id": 43, "name": "爱媛县", "country": "JP", "lat": 33.8417, "lng": 132.7654, "scores": {"total": 72.0, "resource": 75, "price": 70, "market": 72, "grid": 70}, "grade": "B"},
        {"id": 44, "name": "香川县", "country": "JP", "lat": 34.3401, "lng": 134.0434, "scores": {"total": 70.0, "resource": 72, "price": 68, "market": 70, "grid": 72}, "grade": "B"},
        {"id": 45, "name": "德岛县", "country": "JP", "lat": 34.0658, "lng": 134.5764, "scores": {"total": 68.0, "resource": 70, "price": 65, "market": 68, "grid": 70}, "grade": "C"},
        {"id": 46, "name": "高知县", "country": "JP", "lat": 33.5597, "lng": 133.5311, "scores": {"total": 66.0, "resource": 72, "price": 62, "market": 65, "grid": 65}, "grade": "C"},
        {"id": 47, "name": "鸟取县", "country": "JP", "lat": 35.5039, "lng": 133.8676, "scores": {"total": 65.0, "resource": 68, "price": 62, "market": 65, "grid": 65}, "grade": "C"},
        {"id": 48, "name": "岛根县", "country": "JP", "lat": 35.4723, "lng": 133.0505, "scores": {"total": 64.0, "resource": 66, "price": 62, "market": 64, "grid": 65}, "grade": "C"},
        {"id": 49, "name": "冈山县", "country": "JP", "lat": 34.7303, "lng": 133.7915, "scores": {"total": 68.0, "resource": 70, "price": 65, "market": 68, "grid": 70}, "grade": "C"},
        {"id": 50, "name": "广岛县", "country": "JP", "lat": 34.3966, "lng": 132.4596, "scores": {"total": 70.0, "resource": 72, "price": 68, "market": 70, "grid": 70}, "grade": "B"},
        {"id": 51, "name": "山口县", "country": "JP", "lat": 34.1861, "lng": 131.4705, "scores": {"total": 68.0, "resource": 70, "price": 65, "market": 68, "grid": 70}, "grade": "C"},
        {"id": 52, "name": "富山县", "country": "JP", "lat": 36.6959, "lng": 137.2117, "scores": {"total": 72.0, "resource": 75, "price": 70, "market": 72, "grid": 70}, "grade": "B"},
        {"id": 53, "name": "石川县", "country": "JP", "lat": 36.5947, "lng": 136.6256, "scores": {"total": 70.0, "resource": 72, "price": 68, "market": 70, "grid": 72}, "grade": "B"},
        {"id": 54, "name": "福井县", "country": "JP", "lat": 36.0652, "lng": 136.2216, "scores": {"total": 68.0, "resource": 70, "price": 65, "market": 68, "grid": 70}, "grade": "C"},
        {"id": 55, "name": "长野县", "country": "JP", "lat": 36.6513, "lng": 138.181, "scores": {"total": 78.0, "resource": 85, "price": 72, "market": 78, "grid": 78}, "grade": "B"},
        {"id": 56, "name": "岐阜县", "country": "JP", "lat": 35.3912, "lng": 136.7223, "scores": {"total": 70.0, "resource": 72, "price": 68, "market": 70, "grid": 70}, "grade": "B"},
        {"id": 57, "name": "静冈县", "country": "JP", "lat": 34.9769, "lng": 138.3831, "scores": {"total": 75.0, "resource": 80, "price": 72, "market": 75, "grid": 74}, "grade": "B"},
        {"id": 58, "name": "爱知县", "country": "JP", "lat": 35.1802, "lng": 136.9066, "scores": {"total": 72.0, "resource": 70, "price": 78, "market": 72, "grid": 68}, "grade": "B"},
        {"id": 59, "name": "三重县", "country": "JP", "lat": 34.7303, "lng": 136.5086, "scores": {"total": 68.0, "resource": 70, "price": 65, "market": 68, "grid": 70}, "grade": "C"},
        {"id": 60, "name": "大阪府", "country": "JP", "lat": 34.6937, "lng": 135.5023, "scores": {"total": 65.0, "resource": 60, "price": 75, "market": 65, "grid": 60}, "grade": "C"},
        {"id": 61, "name": "兵库县", "country": "JP", "lat": 34.6913, "lng": 135.183, "scores": {"total": 68.0, "resource": 68, "price": 70, "market": 68, "grid": 66}, "grade": "C"},
        {"id": 62, "name": "京都府", "country": "JP", "lat": 35.0212, "lng": 135.7536, "scores": {"total": 62.0, "resource": 60, "price": 68, "market": 62, "grid": 58}, "grade": "C"},
        {"id": 63, "name": "奈良县", "country": "JP", "lat": 34.6851, "lng": 135.8048, "scores": {"total": 60.0, "resource": 58, "price": 65, "market": 60, "grid": 58}, "grade": "C"},
        {"id": 64, "name": "和歌山县", "country": "JP", "lat": 34.226, "lng": 135.1675, "scores": {"total": 62.0, "resource": 65, "price": 60, "market": 62, "grid": 60}, "grade": "C"},
        {"id": 65, "name": "滋贺县", "country": "JP", "lat": 35.0045, "lng": 135.8686, "scores": {"total": 66.0, "resource": 68, "price": 65, "market": 66, "grid": 65}, "grade": "C"},
        {"id": 66, "name": "福井县", "country": "JP", "lat": 35.8437, "lng": 139.7734, "scores": {"total": 55.0, "resource": 50, "price": 65, "market": 55, "grid": 50}, "grade": "D"},
        {"id": 67, "name": "神奈川县", "country": "JP", "lat": 35.4475, "lng": 139.6423, "scores": {"total": 58.0, "resource": 52, "price": 68, "market": 58, "grid": 55}, "grade": "D"},
        {"id": 68, "name": "埼玉县", "country": "JP", "lat": 35.8574, "lng": 139.6489, "scores": {"total": 56.0, "resource": 50, "price": 65, "market": 56, "grid": 52}, "grade": "D"},
        {"id": 69, "name": "千叶县", "country": "JP", "lat": 35.6051, "lng": 140.1233, "scores": {"total": 54.0, "resource": 48, "price": 62, "market": 55, "grid": 52}, "grade": "D"},
        {"id": 70, "name": "茨城县", "country": "JP", "lat": 36.3414, "lng": 140.4468, "scores": {"total": 65.0, "resource": 68, "price": 62, "market": 65, "grid": 65}, "grade": "C"}
    ]
}
